[
  {
    "title": "Rock Beskyd Fest 2016",
    "city": "Turzovka",
    "venue": "",
    "location": "",
    "datetime": "2016-08-06T17:30:00.000+02:00",
    "bands": ["Phylosophium", "Aya", "Helenine Oči", "Arzén", "IMT Smile"]
  },
  {
    "title": "Makovské hody (Akusticky)",
    "city": "Makov",
    "venue": "",
    "location": "",
    "datetime": "2016-07-02T20:30:00.000+02:00",
    "bands": ["---"]
  },
  {
    "title": "Summer Season Opening",
    "city": "Jazernica",
    "venue": "",
    "location": "",
    "datetime": "2016-06-04T20:00:00.000+02:00",
    "bands": ["Bez Hraníc"]
  },
  {
    "title": "Hidden Music Fest 2016",
    "city": "Turzovka",
    "venue": "",
    "location": "",
    "datetime": "2016-05-28T19:00:00.000+02:00",
    "bands": ["Immersion", "Crimson Ocean", "Stripless", "Maiden Tribute Band"]
  },
  {
    "title": "Konflikt Poldecák Tour",
    "city": "Turzovka",
    "venue": "",
    "location": "",
    "datetime": "2016-04-23T19:00:00.000+02:00",
    "bands": ["Konfilkt", "Sedembolestný panic Mário"]
  },
  {
    "title": "Dni Kultúry Nová Bystrica 2015",
    "city": "Nová Bystrica",
    "venue": "",
    "location": "",
    "datetime": "2015-09-19T19:30:00.000+02:00",
    "bands": [
      "Old Modem",
      "All Against Nothing",
      "Arzén",
      "Michal David revival"
    ]
  },
  {
    "title": "Michalský jarmok 2015",
    "city": "Bytča",
    "venue": "",
    "location": "",
    "datetime": "2015-09-19T17:00:00.000+02:00",
    "bands": ["Mad Frequency", "Gladiátor"]
  },
  {
    "title": "Staré ihrisko",
    "city": "Turzovka",
    "venue": "",
    "location": "",
    "datetime": "2015-08-15T19:00:00.000+02:00",
    "bands": ["Haluzotvoristika", "..."]
  },
  {
    "title": "Rock Beskyd Fest 2015",
    "city": "Turzovka",
    "venue": "",
    "location": "",
    "datetime": "2015-08-08T17:30:00.000+02:00",
    "bands": [
      "Haluzotvoristika",
      "Everlong",
      "Signature",
      "Sexit",
      "Iron Maiden Tribute",
      "Arakain"
    ]
  },
  {
    "title": "Grow Up! Takí akí sme TOUR 2015",
    "city": "Turzovka",
    "venue": "",
    "location": "",
    "datetime": "2016-06-19T20:00:00.000+02:00",
    "bands": ["Grow up", "Haluzotvoristika"]
  },
  {
    "title": "Famat 2015",
    "city": "Nové Mesto nad Váhom",
    "venue": "",
    "location": "",
    "datetime": "2016-04-11T17:00:00.000+02:00",
    "bands": [
      "Stripless",
      "Everlong",
      "Dave Brennigan",
      "Ranná Nevoľnosť",
      "Zoči Voči"
    ]
  },
  {
    "title": "Depo Retorik Tour",
    "city": "Turzovka",
    "venue": "",
    "location": "",
    "datetime": "2015-03-13T18:00:00.000+01:00",
    "bands": ["HWCO", "Retorik", "Archa"]
  },
  {
    "title": "Music Mravec Fest 2015",
    "city": "Turzovka",
    "venue": "",
    "location": "",
    "datetime": "2016-02-06T20:30:00.000+01:00",
    "bands": [
      "Tak či onak",
      "Kulimanga",
      "All Against Nothing",
      "Mad Frequency",
      "B0M!M4C4"
    ]
  },
  {
    "title": "Rockové Vianoce Vol. 3",
    "city": "Čadca",
    "venue": "",
    "location": "",
    "datetime": "2014-12-12T19:00:00.000+01:00",
    "bands": ["Sklené oči"]
  },
  {
    "title": "Rádio X - Živák",
    "city": "Žilina",
    "venue": "",
    "location": "",
    "datetime": "2014-11-25T20:00:00.000+01:00",
    "bands": ["Whiskey Weekend"]
  },
  {
    "title": "Rocková noc v Drevine",
    "city": "Krásno nad Kysucou",
    "venue": "",
    "location": "",
    "datetime": "2014-10-10T20:00:00.000+02:00",
    "bands": ["Tak či onak", "T.O.R.", "Alfa"]
  },
  {
    "title": "martenz (Akusticky)",
    "city": "Čadca",
    "venue": "",
    "location": "",
    "datetime": "2014-10-04T20:00:00.000+02:00",
    "bands": ["---"]
  },
  {
    "title": "Fest Rock Vysoká 2014",
    "city": "Vysoká nad Kysucou",
    "venue": "",
    "location": "",
    "datetime": "2014-09-20T20:00:00.000+02:00",
    "bands": ["Elán Tribute", "Tak či onak", "Koridor"]
  },
  {
    "title": "End of the summer (Akusticky)",
    "city": "Makov",
    "venue": "",
    "location": "",
    "datetime": "2014-08-29T20:00:00.000+02:00",
    "bands": ["---"]
  },
  {
    "title": "Rock in Garden (Open Air/2014)",
    "city": "Bytča",
    "venue": "",
    "location": "",
    "datetime": "2014-08-09T17:00:00.000+02:00",
    "bands": ["Bokom Okolky", "Caliber X", "N-grave"]
  },
  {
    "title": "Rock Beskyd Fest 2014 (B.O.R.)",
    "city": "Turzovka",
    "venue": "",
    "location": "",
    "datetime": "2014-08-01T17:00:00.000+02:00",
    "bands": ["The Paranoid", "IneKafe", "..."]
  },
  {
    "title": "Hidden Music Fest 2014 (KRST K.S.I.)",
    "city": "Turzovka",
    "venue": "",
    "location": "",
    "datetime": "2014-06-21T17:00:00.000+02:00",
    "bands": ["..."]
  },
  {
    "title": "Dni Kultúry Nová Bystrica 2014",
    "city": "Turzovka",
    "venue": "",
    "location": "",
    "datetime": "2014-06-20T19:00:00.000+02:00",
    "bands": ["Elán Tribute", "Premier", "Arthera", "Thetox"]
  },
  {
    "title": "Priority (Akusticky)",
    "city": "Turzovka",
    "venue": "",
    "location": "",
    "datetime": "2014-04-19T19:30:00.000+02:00",
    "bands": ["---"]
  },
  {
    "title": "Rainman's Singel Roku",
    "city": "Bratislava",
    "venue": "",
    "location": "",
    "datetime": "2014-02-24T16:00:00.000+01:00",
    "bands": ["--"]
  },
  {
    "title": "martenz (Akusticky)",
    "city": "Čadca",
    "venue": "",
    "location": "",
    "datetime": "2014-02-28T19:00:00.000+01:00",
    "bands": ["---"]
  },
  {
    "title": "Music Mravec Fest 2014",
    "city": "Turzovka",
    "venue": "",
    "location": "",
    "datetime": "2014-02-08T20:15:00.000+01:00",
    "bands": [
      "Sklené Oči",
      "Haluzotvoristika",
      "10 Coins",
      "Witty Joe",
      "Vulpus"
    ]
  },
  {
    "title": "Zimný Fest 2013",
    "city": "Oščadnica (Veľká Rača)",
    "venue": "",
    "location": "",
    "datetime": "2013-12-28T13:00:00.000+01:00",
    "bands": ["Šleha", "Jirka Schelinger revival", "R.U.M."]
  },
  {
    "title": "Vargoš Fest 2013 Winter",
    "city": "Turzovka",
    "venue": "",
    "location": "",
    "datetime": "2013-12-26T17:00:00.000+01:00",
    "bands": ["Rakofski Reznici", "How-No-Cuc", "For Tape", "Predestination"]
  },
  {
    "title": "Escape Club (Mini Acoustic Tour 2013)",
    "city": "Žilina",
    "venue": "",
    "location": "",
    "datetime": "2013-11-29T18:30:00.000+01:00",
    "bands": ["Wadda"]
  },
  {
    "title": "Polana (Mini Acoustic Tour 2013)",
    "city": "Makov",
    "venue": "",
    "location": "",
    "datetime": "2013-11-23T18:30:00.000+01:00",
    "bands": ["---"]
  },
  {
    "title": "Priority (Mini Acoustic Tour 2013)",
    "city": "Turzovka",
    "venue": "",
    "location": "",
    "datetime": "2013-11-16T20:00:00.000+01:00",
    "bands": ["---"]
  },
  {
    "title": "Escape Club Grand Opening 2013",
    "city": "Žilina",
    "venue": "",
    "location": "",
    "datetime": "2013-09-20T16:00:00.000+02:00",
    "bands": ["---"]
  },
  {
    "title": "Makoffest 2013",
    "city": "Makov",
    "venue": "",
    "location": "",
    "datetime": "2013-08-30T16:00:00.000+02:00",
    "bands": [
      "Puding Pani Elvisovej",
      "Smola a Hrušky",
      "From Our Hands",
      "..."
    ]
  },
  {
    "title": "Hidden Music Fest 2013",
    "city": "Turzovka",
    "venue": "",
    "location": "",
    "datetime": "2013-08-24T18:00:00.000+02:00",
    "bands": [
      "WITTY JOE",
      "MASS PERCEPTION",
      "GREEDY INVALID",
      "KORN SK REVIVAL BAND",
      "RAMMSTEIN SK REVIVAL BAND"
    ]
  },
  {
    "title": "Vargoš Fest 2013 Summer",
    "city": "Turzovka",
    "venue": "",
    "location": "",
    "datetime": "2013-08-17T20:00:00.000+02:00",
    "bands": ["---"]
  },
  {
    "title": "Hudbou k rozletu",
    "city": "Makov",
    "venue": "",
    "location": "",
    "datetime": "2013-06-29T13:00:00.000+02:00",
    "bands": ["NoXcuse"]
  },
  {
    "title": "Rock Beskyd Fest 2013 (B.O.R)",
    "city": "Turzovka",
    "venue": "",
    "location": "",
    "datetime": "2013-08-02T16:00:00.000+02:00",
    "bands": ["..."]
  },
  {
    "title": "Dni Kultúry Nová Bystrica 2013",
    "city": "Nová Bystica",
    "venue": "",
    "location": "",
    "datetime": "2013-06-22T18:00:00.000+02:00",
    "bands": ["..."]
  }
]
